[
    {
        "name": "Residencia 1",
        "image": "https://imgur.com/gnmeTpV",
        "city": "Santiago",
        "commune": "Providencia",
        "address": "Juana de Arco 2050",
        "latitude": -33.424968278698,
        "length":  -70.6101453346143
    },
    {
        "name": "Residencia 2",
        "image": "https://imgur.com/MBjVAbN",
        "city": "Santiago",
        "commune": "Providencia",
        "address": "Marchant Pereira 417",
        "latitude": -33.42864181647929,
        "length": -70.61272620932324
    },
    {
        "name": "Residencia 3",
        "image": "https://imgur.com/WWUtpDr",
        "city": "Santiago",
        "commune": "Providencia",
        "address": "Eliodoro Yáñez 2044",
        "latitude": -33.429703713166674,
        "length": -70.6090145096852
    },
    {
        "name": "Residencia 4",
        "image": "https://imgur.com/LRVeEeM",
        "city": "Santiago",
        "commune": "Providencia",
        "address": "Darío Urzúa 1679",
        "latitude": -33.430160605740646, 
        "length": -70.6141274973594
    },
    {
        "name": "Residencia 5",
        "image": "https://imgur.com/lEvfqL3",
        "city": "Santiago",
        "commune": "Providencia",
        "address": "Carlos Antúnez 2390",
        "latitude": -33.42530582913204, 
        "length": -70.6046937960841
    }
]
